City_ID,City,Lat,Lng,Max Temp,Humidity,Cloudiness,Wind Speed,Country,Date
0,new norfolk,-42.7826,147.0587,9.95,90,100,3.94,AU,1691180741
1,udachny,66.4167,112.4,8.03,100,100,4.12,RU,1691180766
2,waitangi,-43.9535,-176.5597,7.12,85,98,2.24,NZ,1691180734
3,bredasdorp,-34.5322,20.0403,10.58,92,8,1.96,ZA,1691180727
4,castillos,-34.1667,-53.8333,13.95,62,35,2.19,UY,1691180767
5,sabzevar,36.2126,57.6819,29.78,20,0,4.71,IR,1691180738
6,nemuro,43.3236,145.575,14.01,97,100,7.11,JP,1691180767
7,adamstown,-25.066,-130.1015,18.62,55,100,5.19,PN,1691180735
8,suva,-18.1416,178.4415,19.71,94,100,4.12,FJ,1691180588
9,ambato boeny,-16.4667,46.7167,23.06,50,55,5.42,MG,1691180768
10,grytviken,-54.2811,-36.5092,-3.64,83,49,3.63,GS,1691180722
11,chibougamau,49.9168,-74.3659,15.79,88,100,4.12,CA,1691180722
12,invercargill,-46.4,168.35,1.68,98,100,1.34,NZ,1691180731
13,port mathurin,-19.6833,63.4167,23.21,72,5,11.09,MU,1691180769
14,rongelap,11.1635,166.8941,28.48,79,100,6.73,MH,1691180769
15,charlotte amalie,18.3419,-64.9307,30.82,84,0,5.14,VI,1691180769
16,bemidji,47.4736,-94.8803,28.36,47,0,3.6,US,1691180543
17,college,64.8569,-147.8028,23.45,62,75,0.0,US,1691180728
18,port-aux-francais,-49.35,70.2167,1.83,65,99,8.1,TF,1691180723
19,walvis bay,-22.9575,14.5053,11.72,87,0,0.0,NA,1691180748
20,tiksi,71.6872,128.8694,3.44,94,100,0.74,RU,1691180758
21,uliastay,47.7417,96.8444,12.9,79,100,2.18,MN,1691180770
22,papatowai,-46.5619,169.4708,3.27,85,98,2.26,NZ,1691180729
23,fisterra,42.9049,-9.2629,18.75,73,4,8.76,ES,1691180758
24,newman,37.3138,-121.0208,32.81,20,0,2.63,US,1691180771
25,vila franca do campo,37.7167,-25.4333,23.23,68,11,4.48,PT,1691180771
26,qaqortoq,60.7167,-46.0333,7.0,80,59,3.91,GL,1691180771
27,amursk,50.2261,136.8994,14.11,69,100,4.06,RU,1691180772
28,nagqu,31.5,92.0,6.42,91,100,4.41,CN,1691180752
29,puerto natales,-51.7236,-72.4875,4.22,73,57,8.07,CL,1691180722
30,lebu,-37.6167,-73.65,11.72,67,100,7.69,CL,1691180772
31,yellowknife,62.456,-114.3525,25.29,36,75,4.12,CA,1691180730
32,omdurman,15.6445,32.4777,34.22,38,16,4.5,SD,1691180773
33,namdrik,5.5994,168.1028,28.18,76,58,5.35,MH,1691180773
34,hasaki,35.7333,140.8333,27.39,88,0,5.94,JP,1691180730
35,iqaluit,63.7506,-68.5145,14.85,67,75,2.06,CA,1691180722
36,inirida,3.8653,-67.9239,28.41,83,75,1.58,CO,1691180774
37,concepcion,-36.827,-73.0498,15.89,48,0,4.12,CL,1691180774
38,bontang,0.1333,117.5,25.2,88,70,1.87,ID,1691180774
39,dokkum,53.3222,5.997,17.0,88,22,2.06,NL,1691180774
40,shimoda,34.6667,138.95,25.61,88,2,3.08,JP,1691180733
41,isafjordur,66.0755,-23.124,11.44,67,100,1.9,IS,1691180691
42,ilulissat,69.2167,-51.1,8.01,76,75,1.54,GL,1691180752
43,edinburgh of the seven seas,-37.0676,-12.3116,10.68,67,60,17.17,SH,1691180726
44,ushuaia,-54.8,-68.3,0.81,69,40,10.8,AR,1691180743
45,mount isa,-20.7333,139.5,19.87,49,100,2.57,AU,1691180736
46,longyearbyen,78.2186,15.6401,11.91,87,75,3.6,SJ,1691180776
47,ar rutbah,33.0381,40.2848,31.99,25,0,4.52,IQ,1691180776
48,pisco,-13.7,-76.2167,21.03,68,0,4.12,PE,1691180641
49,hamilton,39.1834,-84.5333,33.27,49,40,4.63,US,1691180189
50,flin flon,54.7682,-101.865,21.91,73,75,4.12,CA,1691180597
51,iskateley,67.6803,53.1512,21.37,68,72,3.35,RU,1691180478
52,ouadda,8.0777,22.4007,18.94,98,100,1.05,CF,1691180777
53,bethel,41.3712,-73.414,24.64,77,100,3.09,US,1691180727
54,east london,-33.0153,27.9116,21.36,41,77,2.14,ZA,1691180777
55,port moresby,-9.4431,147.1797,22.68,83,75,5.14,PG,1691180525
56,hithadhoo,-0.6,73.0833,27.46,74,100,2.94,MV,1691180778
57,albany,42.6001,-73.9662,24.41,55,49,4.04,US,1691180710
58,auki,-8.7676,160.7034,24.46,91,28,1.97,SB,1691180778
59,weno,7.4515,151.8468,26.79,81,100,1.61,FM,1691180779
60,thompson,55.7435,-97.8558,22.09,73,75,1.54,CA,1691180779
61,cadale,2.7603,46.3222,25.3,84,98,8.87,SO,1691180779
62,bilibino,68.0546,166.4372,7.2,93,100,3.22,RU,1691180748
63,jamestown,42.097,-79.2353,27.23,51,0,3.6,US,1691180687
64,kapa'a,22.0752,-159.319,30.18,74,40,6.17,US,1691180630
65,taoudenni,22.6783,-3.9836,43.58,10,6,3.04,ML,1691180742
66,guarapari,-20.6667,-40.4975,22.16,80,0,3.43,BR,1691180780
67,blackmans bay,-43.0167,147.3167,9.29,72,100,6.47,AU,1691180736
68,meadow lakes,61.6247,-149.6011,16.06,73,100,1.54,US,1691180781
69,khorixas,-20.3667,14.9667,18.93,26,0,0.87,NA,1691180781
70,talnakh,69.4865,88.3972,13.45,59,32,0.99,RU,1691180726
71,leua,48.2156,18.6071,18.91,89,53,2.92,SK,1691180781
72,turi,40.9173,17.0212,26.8,86,20,8.75,IT,1691180781
73,salalah,17.0151,54.0924,26.05,94,100,1.54,OM,1691180782
74,morehead city,34.7229,-76.726,28.0,83,75,6.17,US,1691180782
75,west island,-12.1568,96.8225,24.99,88,75,7.72,CC,1691180744
76,tazovsky,67.4667,78.7,14.4,68,6,2.31,RU,1691180782
77,lihue,21.9789,-159.3672,29.77,67,40,6.17,US,1691180782
78,nuuk,64.1835,-51.7216,6.34,100,100,7.72,GL,1691180626
79,tolanaro,-25.0319,46.9987,20.04,73,40,5.14,MG,1691180783
80,cockburn town,21.4612,-71.1419,29.29,75,8,6.47,TC,1691180519
81,kasongo-lunda,-6.4667,16.8167,24.86,26,41,0.76,CD,1691180783
82,margaret river,-33.95,115.0667,8.65,88,94,3.89,AU,1691180735
83,san antonio de pale,-1.4014,5.6325,22.63,79,21,3.94,GQ,1691180745
84,vadso,70.0744,29.7487,19.49,94,75,3.6,NO,1691180758
85,sarmiento,-45.5882,-69.07,9.75,49,17,9.87,AR,1691180784
86,dame-marie,18.5667,-74.4167,29.36,72,46,1.65,HT,1691180785
87,esuk oron,4.8029,8.2534,23.78,90,64,2.02,NG,1691180785
88,port lincoln,-34.7333,135.8667,11.54,64,100,3.84,AU,1691180785
89,petropavlovsk-kamchatsky,53.0452,158.6483,13.33,88,20,2.0,RU,1691180562
90,atafu village,-8.5421,-172.5159,28.35,72,71,5.3,TK,1691180745
91,georgetown,5.4112,100.3354,28.96,90,20,1.54,MY,1691180739
92,avarua,-21.2078,-159.775,24.03,78,100,2.06,CK,1691180630
93,novoishimskiy,53.1981,66.7694,21.28,64,97,2.56,KZ,1691180786
94,zouerate,22.7187,-12.4521,36.92,12,5,7.52,MR,1691180786
95,zaozersk,69.4005,32.4476,17.31,94,100,3.33,RU,1691180787
96,gillette,44.2911,-105.5022,21.51,64,20,0.0,US,1691180694
97,pandan,14.0453,124.1694,26.96,85,100,4.85,PH,1691180787
98,tommot,58.9564,126.2925,10.35,86,9,1.45,RU,1691180787
99,sola,-13.8833,167.55,22.46,89,100,1.89,VU,1691180787
100,enewetak,11.3474,162.3373,28.35,78,91,5.42,MH,1691180788
101,keflavik,64.0049,-22.5624,12.24,76,100,2.57,IS,1691180788
102,turpan,42.9333,89.1667,36.77,14,87,2.22,CN,1691180788
103,lahad datu,5.0268,118.327,25.16,89,5,1.38,MY,1691180788
104,ardakan,32.31,54.0175,31.23,11,0,1.5,IR,1691180788
105,cabo san lucas,22.8909,-109.9124,36.45,62,20,5.14,MX,1691180765
106,stanley,54.868,-1.6985,12.66,89,100,2.49,GB,1691180730
107,holualoa,19.6228,-155.9522,26.97,71,20,6.69,US,1691180581
108,villa mercedes,-33.6757,-65.4578,19.87,34,23,4.9,AR,1691180789
109,nasiriyah,31.0521,46.261,38.46,12,0,5.18,IQ,1691180790
110,port elizabeth,-33.918,25.5701,18.16,72,0,3.6,ZA,1691180723
111,portland,45.5234,-122.6762,29.91,51,75,1.79,US,1691180042
112,dunedin,-45.8742,170.5036,4.89,90,91,1.53,NZ,1691180790
113,juegang,32.3174,121.1855,28.84,95,6,2.67,CN,1691180790
114,dudinka,69.4058,86.1778,13.68,60,48,2.68,RU,1691180746
115,pleasanton,37.6624,-121.8747,33.1,48,0,3.09,US,1691180725
116,bereket,39.2446,55.5154,28.13,67,27,6.05,TM,1691180791
117,crane,31.3974,-102.3501,38.19,20,0,5.57,US,1691180791
118,sinabang,2.4803,96.3801,27.06,79,100,0.85,ID,1691180791
119,nyurba,63.2842,118.3319,14.42,66,100,2.41,RU,1691180792
120,vuktyl,63.8567,57.3094,18.39,86,66,2.11,RU,1691180792
121,carutapera,-1.195,-46.02,27.45,76,51,3.72,BR,1691180792
122,rio grande,-32.035,-52.0986,19.06,80,54,1.9,BR,1691180752
123,st. john's,47.5649,-52.7093,22.1,75,20,4.12,CA,1691180638
124,san luis de la loma,17.2706,-100.8939,25.06,91,100,4.05,MX,1691180793
125,toliara,-23.35,43.6667,21.82,61,39,3.49,MG,1691180725
126,codrington,-38.2667,141.9667,10.19,72,100,5.91,AU,1691180793
127,balabac,7.9868,117.0645,27.31,81,5,1.98,PH,1691180794
128,calca,-13.3333,-71.95,17.64,53,89,3.7,PE,1691180794
129,dinguiraye,11.3,-10.7167,24.04,85,35,1.46,GN,1691180794
130,howrah,22.5892,88.3103,29.0,94,75,3.6,IN,1691180753
131,ust-nera,64.5667,143.2,13.94,54,63,1.87,RU,1691180795
132,nadym,65.5333,72.5167,18.21,45,5,4.92,RU,1691180795
133,utrik,11.2278,169.8474,28.34,73,98,7.66,MH,1691180759
134,semporna,4.4818,118.6112,26.44,85,16,0.62,MY,1691180795
135,elumalai,9.8667,77.7,26.9,63,78,2.59,IN,1691180795
136,ingeniero jacobacci,-41.3427,-69.5448,8.52,37,0,1.62,AR,1691180796
137,shetpe,44.1667,52.1167,31.27,25,100,9.49,KZ,1691180796
138,chonchi,-42.6128,-73.8092,9.56,81,92,0.81,CL,1691180796
139,opuwo,-18.0607,13.84,18.09,28,1,2.73,NA,1691180796
140,tralee,52.2704,-9.7026,12.09,95,100,4.81,IE,1691180750
141,qalat,32.1058,66.9083,28.2,12,0,3.13,AF,1691180797
142,holbrook,40.8123,-73.0784,25.35,80,100,7.2,US,1691180797
143,port saint john's,-31.6229,29.5448,19.43,43,85,2.43,ZA,1691180797
144,namibe,-15.1961,12.1522,17.22,81,5,2.45,AO,1691180798
145,laguna,38.421,-121.4238,32.88,42,0,2.06,US,1691180680
146,takoradi,4.8845,-1.7554,23.95,89,38,3.69,GH,1691180798
147,abbeville,50.1,1.8333,17.98,91,48,3.24,FR,1691180798
148,pala,9.3642,14.9046,23.23,90,100,2.07,TD,1691180798
149,an nuhud,12.7,28.4333,25.06,75,100,4.64,SD,1691180799
150,itapaci,-14.9508,-49.5494,31.67,20,100,1.21,BR,1691180799
151,whitehorse,60.7161,-135.0538,22.43,49,20,2.57,CA,1691180736
152,ribeira grande,38.5167,-28.7,23.76,78,40,3.6,PT,1691180761
153,kristiansund,63.1115,7.732,13.03,87,100,2.57,NO,1691180727
154,thunder bay,48.4001,-89.3168,22.99,53,40,4.12,CA,1691180548
155,tatarsk,55.219,75.9828,18.82,84,63,1.77,RU,1691180800
156,puerto ayora,-0.7393,-90.3518,30.98,91,76,3.58,EC,1691180734
157,aasiaat,68.7098,-52.8699,2.74,85,96,1.13,GL,1691180761
158,maloye ganyushkino,46.6,49.2667,29.29,38,4,3.11,KZ,1691180800
159,quirihue,-36.2833,-72.5333,14.8,37,23,2.06,CL,1691180800
160,kidal,18.4411,1.4078,31.26,41,100,1.32,ML,1691180801
161,yichun,47.7,128.9,14.0,98,100,2.9,CN,1691180801
162,tura,25.5198,90.2201,24.08,98,100,2.64,IN,1691180750
163,kirensk,57.7853,108.1119,13.77,96,11,0.8,RU,1691180801
164,musan-up,42.2261,129.2078,22.35,100,100,0.81,KP,1691180802
165,koumra,8.9126,17.5539,22.52,98,100,2.37,TD,1691180802
166,saint-philippe,-21.3585,55.7679,19.77,85,98,8.34,RE,1691180802
167,edson,53.5835,-116.4356,22.08,46,0,1.54,CA,1691180802
168,namtsy,62.7161,129.6658,13.85,70,23,1.16,RU,1691180803
169,mokhsogollokh,61.4681,128.9203,12.8,72,13,0.88,RU,1691180803
170,heide,54.2,9.1,16.73,67,98,3.64,DE,1691180803
171,olonkinbyen,70.9221,-8.7187,3.66,92,100,11.49,SJ,1691180803
172,afaahiti,-17.75,-149.2833,26.93,81,83,6.91,PF,1691180803
173,bonito,-21.1211,-56.4819,32.92,20,0,1.53,BR,1691180745
174,ebon,4.582,168.6964,28.09,77,46,3.78,MH,1691180804
175,phumi veal sre,10.9808,104.7783,25.83,84,70,2.44,KH,1691180804
176,el calafate,-50.3408,-72.2768,1.78,77,7,3.44,AR,1691180804
177,serenje,-13.2325,30.2352,11.27,58,0,2.17,ZM,1691180804
178,pagar alam,-4.0167,103.2667,19.89,98,38,0.72,ID,1691180805
179,midvagur,62.0511,-7.1939,10.46,93,75,1.54,FO,1691180805
180,vorgashor,67.5833,63.95,19.78,68,6,1.89,RU,1691180756
181,mount pearl,47.5166,-52.7813,21.64,75,20,4.12,CA,1691180805
182,bikenibeu village,1.3673,173.1241,27.98,89,100,2.57,KI,1691180806
183,taroa,8.7058,171.2275,28.2,72,67,7.39,MH,1691180806
184,kodiak,57.79,-152.4072,12.73,82,100,1.54,US,1691180742
185,ishikawa,26.4233,127.8214,26.98,100,100,15.2,JP,1691180806
186,osuna,37.2377,-5.1075,29.55,37,0,2.83,ES,1691180806
187,elazig,38.6743,39.2232,26.83,32,0,2.06,TR,1691180807
188,shingu,33.7333,135.9833,26.41,90,83,1.34,JP,1691180807
189,ridgecrest,35.6225,-117.6709,36.68,9,0,2.24,US,1691180589
190,hadibu,12.65,54.0333,26.12,77,100,9.24,YE,1691180745
191,bangassou,4.7413,22.8184,20.56,99,99,1.01,CF,1691180807
192,punta arenas,-53.15,-70.9167,3.34,74,99,8.85,CL,1691180701
193,hilo,19.7297,-155.09,29.6,72,100,3.09,US,1691180724
194,springbok,-29.6643,17.8865,10.13,49,0,0.93,ZA,1691180808
195,peniche,39.3558,-9.3811,20.72,78,0,8.93,PT,1691180808
196,lycksele,64.5954,18.6735,14.93,94,75,0.51,SE,1691180705
197,sitka,57.0531,-135.33,18.94,72,40,2.57,US,1691180809
198,quellon,-43.1167,-73.6167,9.14,87,40,2.06,CL,1691180809
199,puerto yuca,2.9383,-73.2083,30.37,62,59,1.56,CO,1691180809
200,papao,-17.75,-149.55,27.82,79,68,5.97,PF,1691180809
201,ballina,-28.8667,153.5667,13.21,77,72,0.92,AU,1691180743
202,pimentel,-6.8367,-79.9342,25.16,61,100,4.12,PE,1691180810
203,ta`u,-14.2336,-169.5144,26.79,79,48,7.32,AS,1691180756
204,hawaiian paradise park,19.5933,-154.9731,27.73,88,100,3.09,US,1691180743
205,sokoni,-6.4333,39.55,24.52,84,13,7.97,TZ,1691180811
206,nanning,22.8167,108.3167,26.25,95,69,1.38,CN,1691180811
207,berdigestyakh,62.0989,126.6992,13.22,68,56,0.89,RU,1691180811
208,vallenar,-28.5708,-70.7581,24.56,34,5,3.22,CL,1691180812
209,filey,54.21,-0.2892,14.32,88,100,1.67,GB,1691180812
210,klaksvik,62.2266,-6.589,10.51,81,100,3.57,FO,1691180812
211,linxia chengguanzhen,35.6003,103.2064,18.92,71,80,0.92,CN,1691180812
212,arawa,-6.2132,155.5367,24.95,94,86,2.32,PG,1691180812
213,pinsk,52.1229,26.0951,20.66,63,95,1.31,BY,1691180813
214,moramanga,-18.9333,48.2,13.07,91,98,2.48,MG,1691180813
215,ornskoldsvik,63.2909,18.7153,17.53,88,100,3.6,SE,1691180813
216,vilyuchinsk,52.9306,158.4028,14.15,84,6,3.7,RU,1691180813
217,sanford,28.8006,-81.2731,36.27,62,40,3.09,US,1691180813
218,saint-mandrier-sur-mer,43.078,5.929,23.92,44,0,10.29,FR,1691180814
219,akure,7.2526,5.1931,21.96,99,26,1.31,NG,1691180814
220,nizhnesortymskiy,62.4397,71.7603,19.06,57,0,4.15,RU,1691180815
221,susanville,40.4163,-120.653,28.79,29,0,3.6,US,1691180816
222,geraldton,-28.7667,114.6,8.23,81,0,2.57,AU,1691180747
223,san mariano,7.5,126.0,22.37,92,15,1.34,PH,1691180816
224,uturoa,-16.7333,-151.4333,26.01,77,32,5.52,PF,1691180727
225,vilyuysk,63.7553,121.6247,14.66,70,100,2.46,RU,1691180816
226,daru,-9.0763,143.2092,24.06,81,16,5.55,PG,1691180817
227,haiku-pauwela,20.9219,-156.3051,27.36,57,20,9.26,US,1691180749
228,arkhangel'sk,64.5401,40.5433,17.68,98,100,2.35,RU,1691180661
229,wotje,9.4543,170.2367,28.29,73,98,8.09,MH,1691180817
230,sandnessjoen,66.0217,12.6316,13.29,94,75,2.06,NO,1691180818
231,la libertad,-2.2333,-80.9,26.81,74,40,5.66,EC,1691180818
232,awjilah,29.1081,21.2869,32.48,23,0,5.2,LY,1691180818
233,fale old settlement,-9.3852,-171.2468,27.5,78,76,5.47,TK,1691180818
234,nova sintra,14.8667,-24.7167,23.74,84,50,2.33,CV,1691180818
235,vernon,50.2581,-119.2691,32.18,20,0,1.54,CA,1691180713
236,jincheng,35.5022,112.8328,26.35,73,0,0.68,CN,1691180819
237,concepcion del oro,24.6333,-101.4167,27.31,24,97,3.39,MX,1691180819
238,rudbar,30.15,62.6,33.69,10,4,5.36,AF,1691180819
239,newport,51.5877,-2.9984,16.49,77,100,4.47,GB,1691180819
240,puerto deseado,-47.7503,-65.8938,7.03,49,0,5.23,AR,1691180820
241,orland,39.7474,-122.1964,33.58,43,0,0.45,US,1691180820
242,wailua homesteads,22.0669,-159.378,29.44,74,40,6.17,US,1691180725
243,vila velha,-20.3297,-40.2925,22.97,87,0,4.63,BR,1691180747
244,ad dilam,23.9915,47.1627,37.23,9,1,4.64,SA,1691180739
245,bujaru,-1.515,-48.0447,30.51,60,58,1.34,BR,1691180821
246,thief river falls,48.1191,-96.1812,27.53,54,75,4.12,US,1691180821
247,anshun,26.25,105.9333,19.2,94,97,0.34,CN,1691180821
248,aracruz,-19.8203,-40.2733,22.56,75,0,2.43,BR,1691180821
249,cabedelo,-6.9811,-34.8339,26.37,73,20,5.49,BR,1691180821
250,basco,20.4487,121.9702,28.44,87,100,16.03,PH,1691180822
251,anadyr,64.75,177.4833,10.28,93,100,7.0,RU,1691180741
252,tahoua,14.8888,5.2692,35.45,36,35,1.89,NE,1691180822
253,kapuskasing,49.4169,-82.4331,21.0,52,75,3.6,CA,1691180822
254,quelimane,-17.8786,36.8883,19.97,94,75,3.09,MZ,1691180823
255,baikunthpur,23.25,82.55,22.95,96,100,5.05,IN,1691180823
256,mocimboa,-11.3167,40.35,23.21,77,38,4.59,MZ,1691180823
257,jawf al maqbabah,13.8378,45.8349,29.63,56,69,2.49,YE,1691180823
258,nantucket,41.2835,-70.0995,26.11,53,0,4.12,US,1691180690
259,olinda,-8.0089,-34.8553,25.85,69,20,6.17,BR,1691180824
260,masterton,-40.9597,175.6575,9.38,89,78,2.12,NZ,1691180824
261,saint-denis,48.9167,2.3333,18.27,81,75,3.09,FR,1691180824
262,nanao,37.05,136.9667,27.32,84,0,1.38,JP,1691180825
263,saynshand,44.8824,110.1163,21.7,52,6,6.4,MN,1691180825
264,reyes,-14.3167,-67.3833,33.09,49,20,2.06,BO,1691180825
265,egilsstadir,65.2653,-14.3948,10.95,66,20,5.14,IS,1691180739
266,happy valley-goose bay,53.3168,-60.3315,17.17,82,100,2.57,CA,1691180826
267,ishigaki,24.3448,124.1572,26.07,100,100,2.57,JP,1691180826
268,sarangani,5.4033,125.4636,27.99,79,59,2.92,PH,1691180826
269,sanctuary point,-35.1114,150.629,14.43,66,100,3.02,AU,1691180826
270,tual,-5.6667,132.75,25.87,82,74,9.91,ID,1691180827
271,sinop,41.7711,34.8709,19.08,67,0,2.81,TR,1691180827
272,inari,68.906,27.0288,17.11,98,100,2.08,FI,1691180827
273,kasongo,-4.45,26.6667,26.4,43,77,1.89,CD,1691180827
274,ust'-ilimsk,58.0006,102.6619,10.57,96,90,1.84,RU,1691180827
275,chicoana,-25.1009,-65.5331,25.03,35,0,3.35,AR,1691180828
276,hermanus,-34.4187,19.2345,8.78,85,45,2.79,ZA,1691180746
277,arraial do cabo,-22.9661,-42.0278,21.98,78,0,4.12,BR,1691180741
278,buka,40.8108,69.1986,24.48,21,0,0.98,UZ,1691180828
279,ancud,-41.8697,-73.8203,9.05,69,43,2.14,CL,1691180741
280,anloga,5.7947,0.8973,24.89,88,6,5.76,GH,1691180829
281,yarmouth,41.7057,-70.2286,26.26,67,20,6.17,US,1691180822
282,sechura,-5.5569,-80.8222,27.1,58,3,7.54,PE,1691180829
283,rawson,-43.3002,-65.1023,12.89,37,0,5.07,AR,1691180829
284,sawakin,19.1059,37.3321,33.84,45,9,0.96,SD,1691180829
285,peterhead,57.5058,-1.7981,13.03,76,39,3.54,GB,1691180830
286,altai,46.3722,96.2583,14.22,63,64,1.12,MN,1691180830
287,saipan,15.1355,145.701,27.39,100,0,1.54,MP,1691180830
288,ciudad bolivar,8.1222,-63.5497,32.26,54,95,0.71,VE,1691180830
289,tripoli,32.8752,13.1875,32.49,46,0,7.15,LY,1691180831
290,pacocha,-17.5833,-71.3333,19.08,68,75,3.6,PE,1691180831
291,marquette,46.5333,-87.6335,23.76,71,51,2.24,US,1691180831
292,tidjikja,18.5564,-11.4271,37.14,13,33,4.7,MR,1691180832
293,carnarvon,-24.8667,113.6333,16.57,65,0,6.75,AU,1691180751
294,comodoro rivadavia,-45.8667,-67.5,14.92,29,20,7.2,AR,1691180813
295,sharlyk,52.9167,54.75,18.48,81,19,1.16,RU,1691180833
296,port douglas,-16.4833,145.4667,20.68,77,92,7.6,AU,1691180746
297,usinsk,65.9939,57.5281,19.75,77,11,1.79,RU,1691180833
298,ierapetra,35.01,25.7353,27.86,71,0,1.34,GR,1691180833
299,acarau,-2.8856,-40.12,27.44,67,31,7.8,BR,1691180758
300,tucuma,-0.1833,-50.05,27.38,81,55,3.59,BR,1691180615
301,touros,-5.1989,-35.4608,25.62,66,55,7.87,BR,1691180760
302,bismarck,46.8083,-100.7837,22.91,87,40,6.69,US,1691180834
303,galliano,29.4422,-90.2992,38.89,52,40,2.06,US,1691180731
304,tangalle,6.024,80.7911,25.23,92,86,4.67,LK,1691180834
305,olyokminsk,60.3736,120.4264,14.13,73,100,2.18,RU,1691180835
306,barclayville,4.6797,-8.2339,24.94,85,99,3.66,LR,1691180835
307,mahina,-17.5065,-149.489,27.87,65,75,2.06,PF,1691180835
308,yumbel,-37.0833,-72.5667,14.13,49,100,3.35,CL,1691180835
309,cururupu,-1.8283,-44.8683,27.99,70,28,2.79,BR,1691180796
310,tromso,69.6496,18.957,13.54,82,75,2.57,NO,1691180836
311,puerto colombia,10.9878,-74.9547,31.05,74,6,9.09,CO,1691180836
312,sault ste. marie,46.5168,-84.3333,24.31,62,100,6.69,CA,1691180581
313,lysekil,58.2743,11.4358,17.24,78,2,1.26,SE,1691180837
314,beyneu,45.3167,55.2,31.93,25,92,4.61,KZ,1691180837
315,luderitz,-26.6481,15.1594,12.7,76,1,2.87,NA,1691180837
316,kailua-kona,19.6406,-155.9956,29.04,71,20,6.69,US,1691180754
317,santa cruz,-17.8,-63.1667,33.03,31,0,6.69,BO,1691180688
318,barcelos,41.5388,-8.6151,25.51,58,10,3.78,PT,1691180634
319,susuman,62.7833,148.1667,10.02,57,5,1.19,RU,1691180735
320,santa luzia,-19.7697,-43.8514,28.19,28,0,3.09,BR,1691180838
321,enriquillo,17.9,-71.2333,34.82,64,0,5.09,DO,1691180839
322,el granada,37.5027,-122.4694,31.71,71,20,7.2,US,1691180839
323,smithers,54.7804,-127.1743,25.18,38,0,1.54,CA,1691180712
324,tocopilla,-22.092,-70.1979,20.13,69,16,3.7,CL,1691180514
325,san pedro,14.35,121.0167,27.42,93,20,2.24,PH,1691180839
326,gizo,-8.103,156.8419,26.42,83,94,10.23,SB,1691180840
327,fortaleza,-3.7227,-38.5247,28.07,69,0,6.17,BR,1691180658
328,skovorodino,53.9833,123.9167,10.35,75,0,1.16,RU,1691180840
329,almeirim,-1.5233,-52.5817,34.96,35,15,2.39,BR,1691180558
330,klyuchi,52.2667,79.1667,19.53,75,100,2.4,RU,1691180749
331,ceres,37.5949,-120.9577,33.78,42,0,4.12,US,1691180840
332,sacramento,38.4666,-121.3177,33.44,43,0,2.24,US,1691180556
333,dalbandin,28.8947,64.4101,33.23,8,2,2.21,PK,1691180841
334,minas de marcona,-15.2119,-75.1103,18.28,54,9,3.45,PE,1691180841
335,iquique,-20.2208,-70.1431,19.02,71,18,2.68,CL,1691180638
336,chegdomyn,51.1167,133.0167,10.68,77,95,0.89,RU,1691180842
337,baruun-urt,46.6806,113.2792,9.62,95,2,2.81,MN,1691180842
338,melfort,52.8667,-104.6177,25.07,36,0,5.14,CA,1691180842
339,port alfred,-33.5906,26.891,20.57,48,100,2.99,ZA,1691180842
340,tabou,4.423,-7.3528,24.99,83,100,4.37,CI,1691180843
341,arroyo de la luz,39.4851,-6.584,25.38,16,6,1.95,ES,1691180843
342,tamanrasset,22.785,5.5228,33.95,10,3,2.06,DZ,1691180843
343,port isabel,26.0734,-97.2086,38.05,49,0,9.26,US,1691180843
344,barah,13.7,30.3667,27.47,61,44,4.1,SD,1691180844
345,malanje,-9.5402,16.341,22.55,24,2,1.82,AO,1691180844
346,le port,-20.9373,55.2919,21.98,95,71,2.67,RE,1691180739
347,ulladulla,-35.35,150.4667,16.12,62,100,3.59,AU,1691180844
348,hobyo,5.3505,48.5268,25.42,82,100,14.02,SO,1691180844
349,lionel town,17.8101,-77.2406,31.94,60,5,4.93,JM,1691180845
350,kaa-khem,51.6833,94.7333,16.01,87,51,0.39,RU,1691180845
351,grand falls-windsor,48.9332,-55.6649,25.84,42,10,2.27,CA,1691180845
352,bubaque,11.2833,-15.8333,27.26,78,99,0.38,GW,1691180846
353,okhotsk,59.3833,143.3,16.42,58,100,1.25,RU,1691180846
354,spring creek,40.7266,-115.5859,27.12,24,0,2.08,US,1691180846
355,flagstaff,35.1981,-111.6513,30.89,20,0,6.17,US,1691180651
356,mejit,10.2753,170.8646,28.24,71,44,6.93,MH,1691180847
357,heihe,50.2441,127.4902,12.32,79,100,1.77,CN,1691180847
358,jabor,5.921,169.6434,28.68,75,60,6.55,MH,1691180847
359,bulungu,-4.55,18.6,25.98,27,2,0.87,CD,1691180848
360,caleta olivia,-46.4393,-67.5281,11.16,45,0,5.9,AR,1691180848
361,calamba,14.2117,121.1653,27.17,87,100,3.75,PH,1691180848
362,san patricio,28.017,-97.5169,39.4,40,5,8.69,US,1691180762
363,alofi,-19.0595,-169.9187,21.94,100,100,6.17,NU,1691180848
364,obihiro,42.9172,143.2044,19.8,98,100,1.45,JP,1691180849
365,taber,49.8167,-112.1518,26.91,37,36,3.6,CA,1691180849
366,ipilan,8.8431,117.9033,26.49,86,14,1.59,PH,1691180849
367,pocone,-16.2567,-56.6228,36.9,14,0,0.97,BR,1691180721
368,ouani,-12.1322,44.4258,25.24,74,25,1.98,KM,1691180850
369,la passe,45.5549,-0.8967,18.13,73,46,5.85,FR,1691180850
370,kitimat,54.0524,-128.6534,28.71,48,88,2.24,CA,1691180717
371,ta'if,21.2703,40.4158,26.56,23,31,7.5,SA,1691180850
372,katsuren-haebaru,26.3369,127.8719,27.01,100,100,19.67,JP,1691180850
373,empangeni,-28.762,31.8933,17.71,70,49,4.93,ZA,1691180851
374,ola,59.5833,151.2833,16.75,62,100,2.92,RU,1691180757
375,bagnes,46.0833,7.2167,15.12,82,40,3.6,CH,1691180851
376,chokwe,-24.5333,32.9833,18.6,70,77,2.9,MZ,1691180851
377,twon-brass,4.3151,6.2418,25.74,82,73,5.92,NG,1691180851
378,mezhdurechenskiy,59.6,65.9333,17.54,97,16,1.46,RU,1691180852
379,naracoorte,-36.9579,140.7383,8.95,75,100,2.63,AU,1691180852
380,bonthe,7.5264,-12.505,25.28,89,100,2.81,SL,1691180852
381,queenstown,-31.8976,26.8753,11.98,44,96,2.47,ZA,1691180853
382,badger,64.8,-147.5333,23.41,60,75,0.0,US,1691180853
383,necochea,-38.5473,-58.7368,9.9,67,0,6.04,AR,1691180853
384,constantia,44.1833,28.65,23.38,82,0,4.82,RO,1691180853
385,kone,-21.0595,164.8658,17.44,82,84,2.78,NC,1691180853
386,colesberg,-30.72,25.0972,11.09,46,90,2.4,ZA,1691180854
387,meadow lake,34.8014,-106.5436,37.1,17,1,5.2,US,1691180854
388,akureyri,65.6835,-18.0878,12.96,62,20,4.63,IS,1691180854
389,dundaga,57.5167,22.35,15.68,85,2,4.55,LV,1691180855
390,chernyshevskiy,63.0128,112.4714,13.44,87,100,2.25,RU,1691180855
391,remire-montjoly,4.9167,-52.2667,30.02,66,40,4.63,GF,1691180855
392,at-bashi,41.1702,75.8106,16.44,55,82,0.59,KG,1691180855
393,port-gentil,-0.7193,8.7815,22.98,88,100,2.57,GA,1691180855
394,puerto baquerizo moreno,-0.9,-89.6,27.55,78,75,7.72,EC,1691180550
395,nanzhang chengguanzhen,31.7839,111.8275,28.23,83,0,1.4,CN,1691180856
396,urucurituba,-2.6833,-57.6667,35.8,30,98,1.15,BR,1691180856
397,lazaro cardenas,17.9583,-102.2,25.28,91,100,3.91,MX,1691180856
398,omagh,54.6,-7.3,11.53,95,100,1.22,GB,1691180856
399,sao felix do xingu,-6.6447,-51.995,36.96,21,12,0.22,BR,1691180857
400,al mijlad,11.0333,27.7333,27.58,67,100,5.77,SD,1691180754
401,ayr,55.4627,-4.6339,14.17,77,40,3.09,GB,1691180857
402,molochnoye,59.2917,39.6787,16.89,96,2,2.89,RU,1691180857
403,parkes,-33.1333,148.1833,12.42,64,100,2.76,AU,1691180858
404,itoman,26.1247,127.6694,27.01,94,100,20.06,JP,1691180858
405,thinadhoo,0.5333,72.9333,27.32,75,91,2.06,MV,1691180858
406,howard springs,-12.497,131.047,24.95,53,97,2.14,AU,1691180728
407,flying fish cove,-10.4217,105.6791,24.82,88,100,7.72,CX,1691180858
408,kostanay,53.1667,63.5833,18.16,88,0,3.0,KZ,1691180859
409,lata,40.1629,-8.3327,19.49,62,12,1.27,PT,1691180859
410,luanda,-8.8368,13.2343,22.0,83,75,4.63,AO,1691180859
411,odda,60.0691,6.5457,15.43,93,54,1.31,NO,1691180859
412,mar del plata,-38.0023,-57.5575,13.38,68,0,5.14,AR,1691180859
413,mezhdurechensk,53.6942,88.0603,16.79,97,97,0.96,RU,1691180860
414,joshimath,30.5667,79.5667,22.45,95,96,0.27,IN,1691180860
415,bayanhongor,46.7167,100.1167,9.71,80,3,0.95,MN,1691180860
416,myitkyina,25.3833,97.4,24.34,100,100,0.61,MM,1691180860
417,turkmenbasy,40.0222,52.9552,24.43,83,75,2.06,TM,1691180861
418,pa daet,19.5049,99.9924,22.84,98,100,2.31,TH,1691180861
419,kerrville,30.0474,-99.1403,39.74,34,0,4.63,US,1691180861
420,maintirano,-18.0667,44.0167,24.49,67,95,1.77,MG,1691180861
421,astrakhan,46.3497,48.0408,25.93,57,0,3.0,RU,1691180827
422,westport,41.1415,-73.3579,25.34,77,100,6.69,US,1691180677
423,magong,23.5654,119.5863,28.89,86,100,10.84,TW,1691180862
424,doba,8.65,16.85,22.59,95,100,1.92,TD,1691180862
425,lautoka,-17.6167,177.4667,19.92,88,100,3.09,FJ,1691180862
426,saint-joseph,-21.3667,55.6167,20.82,84,79,8.66,RE,1691180862
427,richfield,44.8833,-93.283,33.47,46,75,4.12,US,1691180863
428,selibaby,15.159,-12.1829,36.97,34,11,2.97,MR,1691180863
429,colonia,50.9333,6.95,18.25,79,28,1.8,DE,1691180546
430,mil'kovo,55.6078,37.7956,22.08,65,66,2.64,RU,1691180864
431,san dona di piave,45.6317,12.5694,20.7,91,100,4.84,IT,1691180864
432,saint-amable,45.6527,-73.2956,27.71,63,75,4.63,CA,1691180864
433,gadzhiyevo,69.2551,33.3362,17.8,84,100,3.59,RU,1691180864
434,kingston,17.997,-76.7936,31.53,76,75,5.66,JM,1691180292
435,parsabad,39.6482,47.9174,30.29,34,100,5.2,IR,1691180865
436,makushino,55.2103,67.2442,18.72,77,17,1.16,RU,1691180865
437,khanty-mansiysk,61.0042,69.0019,20.06,100,97,1.0,RU,1691180661
438,ruidoso,33.3317,-105.673,32.76,24,40,4.12,US,1691180835
439,coahuayana de hidalgo,18.7,-103.6583,26.98,89,100,2.21,MX,1691180866
440,mantua,45.1667,10.7833,20.61,88,100,1.34,IT,1691180866
441,mount gambier,-37.8333,140.7667,8.99,76,100,2.93,AU,1691180749
442,kalmunai,7.4167,81.8167,27.37,80,100,1.83,LK,1691180866
443,pathein,16.7833,94.7333,25.78,87,100,3.19,MM,1691180867
444,santa marinella,42.0345,11.8536,19.95,91,100,6.18,IT,1691180867
445,hoeryong,42.4428,129.7508,21.48,100,100,0.79,KP,1691180867
446,severo-yeniseyskiy,60.3725,93.0408,4.89,87,6,1.91,RU,1691180867
447,kronoby,63.7286,23.0339,16.68,95,78,1.03,FI,1691180868
448,borodulikha,50.7184,80.9295,19.46,70,74,1.88,KZ,1691180868
449,zabid,14.1951,43.3152,33.14,46,94,5.8,YE,1691180868
450,ukiah,39.1502,-123.2078,34.69,33,0,2.06,US,1691180868
451,pemangkat,1.1667,108.9667,26.47,85,21,2.18,ID,1691180869
452,chateaubriant,47.7167,-1.3833,17.6,67,100,3.24,FR,1691180869
453,aginskoye,51.1,114.53,11.13,74,0,1.24,RU,1691180869
454,saku,36.2167,138.4833,22.65,78,34,1.36,JP,1691180869
455,berezovyy,51.6667,135.7,11.39,80,51,1.45,RU,1691180870
456,chambishi,-12.6325,28.0537,14.97,43,0,3.25,ZM,1691180870
457,saldanha,-33.0117,17.9442,8.03,89,19,3.19,ZA,1691180763
458,quezon,7.7303,125.0989,22.28,94,73,0.14,PH,1691180870
459,pikeville,37.4793,-82.5188,31.11,57,0,2.57,US,1691180870
460,darwin,-12.4611,130.8418,24.99,83,100,0.0,AU,1691180871
461,uusikaupunki,60.8004,21.4084,16.71,91,39,5.81,FI,1691180871
462,ingeniero guillermo n. juarez,-23.9,-61.85,34.26,20,0,3.34,AR,1691180871
463,sibut,5.718,19.0739,21.62,95,100,1.28,CF,1691180872
464,kharp,66.8014,65.8081,19.78,69,14,2.48,RU,1691180872
465,letterkenny,54.95,-7.7333,13.94,95,100,1.12,IE,1691180872
466,emerald,-23.5333,148.1667,11.3,76,1,4.84,AU,1691180872
467,praia da vitoria,38.7333,-27.0667,24.86,78,20,4.26,PT,1691180873
468,sisimiut,66.9395,-53.6735,6.42,84,98,2.69,GL,1691180873
469,khandwa,21.8333,76.3333,24.43,85,100,4.5,IN,1691180873
470,bolobo,-2.1667,16.2333,25.4,55,62,1.68,CD,1691180873
471,mossel bay,-34.1831,22.146,11.96,83,0,1.71,ZA,1691180873
472,kajaani,64.2273,27.7285,17.03,88,20,2.57,FI,1691180874
473,tingi,-11.3,35.0333,13.74,63,0,0.71,TZ,1691180874
474,kerikeri,-35.2268,173.9474,11.62,89,20,0.45,NZ,1691180874
475,meizhou,24.2977,116.1072,26.54,91,51,1.21,CN,1691180874
476,naze,28.3667,129.4833,26.51,94,100,12.59,JP,1691180824
477,kavaratti,10.5669,72.642,28.57,77,55,7.68,IN,1691180742
478,haicheng,40.8516,122.7475,24.53,97,100,2.07,CN,1691180875
479,novodvinsk,64.4165,40.8122,17.6,98,100,2.12,RU,1691180875
480,eyl,7.9803,49.8164,25.27,80,36,12.36,SO,1691180875
481,lompoc,34.6391,-120.4579,26.58,51,2,6.49,US,1691180757
482,pudozh,61.8099,36.5345,15.76,95,1,2.15,RU,1691180876
483,obo,5.3998,26.4869,20.3,99,100,1.19,CF,1691180876
484,adani,6.7397,7.0112,23.53,95,52,2.01,NG,1691180876
485,nar'yan-mar,67.6713,53.087,21.28,69,70,3.39,RU,1691180877
486,ketchikan,55.3422,-131.6461,23.26,53,0,1.54,US,1691180877
487,chinde,26.8418,88.0763,18.57,89,100,1.63,NP,1691180735
488,tofol,5.3248,163.0078,28.28,77,80,4.36,FM,1691180878
489,cosne-cours-sur-loire,47.3333,3.1667,13.55,89,18,2.67,FR,1691180878
490,tegueste,28.5167,-16.3167,22.03,91,75,10.8,ES,1691180879
491,changuinola,9.4333,-82.5167,27.26,71,9,1.79,PA,1691180688
492,jwaneng,-24.6004,24.7303,9.15,45,0,3.86,BW,1691180879
493,poso,-1.3959,120.7524,24.92,82,1,2.71,ID,1691180879
494,khandyga,62.6667,135.6,12.77,77,35,0.55,RU,1691180879
495,broome,42.2506,-75.833,25.5,79,100,2.68,US,1691180880
496,bandon,51.7469,-8.7425,12.77,93,100,7.42,IE,1691180880
497,yuli,9.6989,10.2744,27.18,65,92,2.19,NG,1691180880
498,murun-kuren,49.6342,100.1625,13.32,81,10,0.86,MN,1691180880
499,palmer,42.1584,-72.3287,25.35,68,57,2.24,US,1691180881
500,kuragino,53.8975,92.6725,16.35,92,100,0.42,RU,1691180881
501,hammerfest,70.6634,23.6821,13.25,94,75,3.09,NO,1691180881
502,puntarenas,9.9763,-84.8384,30.74,67,39,4.23,CR,1691180881
503,west sedona,34.8672,-111.8054,36.88,16,0,2.57,US,1691180881
504,reggane,26.7158,0.1714,42.4,7,0,2.74,DZ,1691180882
505,visakhapatnam,17.69,83.2093,29.13,70,100,4.0,IN,1691180649
506,ventspils,57.3894,21.5606,17.96,94,20,4.63,LV,1691180761
507,valparaiso,-33.0393,-71.6273,16.11,80,100,5.66,CL,1691180847
508,pennsville,39.6535,-75.5166,26.25,77,100,3.6,US,1691180883
509,lovington,32.944,-103.3485,39.62,23,1,2.68,US,1691180883
510,melekeok village,7.4957,134.6367,25.31,94,100,0.0,PW,1691180883
511,val-d'or,48.1002,-77.7828,19.05,59,40,6.17,CA,1691180883
512,khartoum,15.5518,32.5324,33.82,39,10,4.62,SD,1691180883
513,illizi,26.4833,8.4667,38.89,12,6,5.31,DZ,1691180884
514,agat village,13.3886,144.6585,27.52,96,20,2.06,GU,1691180884
515,duku,11.2361,4.9073,26.77,75,91,3.16,NG,1691180884
516,turtas,58.9417,69.1325,17.63,95,99,2.02,RU,1691180884
517,corzuela,-26.9537,-60.9693,31.08,32,0,2.57,AR,1691180737
518,nadi,-17.8,177.4167,20.0,88,100,3.09,FJ,1691180885
519,laojunmiao,39.8333,97.7333,20.12,40,100,7.02,CN,1691180885
520,natal,-5.795,-35.2094,27.12,74,20,8.75,BR,1691180597
521,wafangdian,39.6183,122.0081,25.04,88,100,0.85,CN,1691180885
522,roma,43.2128,-75.4557,26.57,79,75,3.09,US,1691180643
523,tazacorte,28.629,-17.9293,23.54,90,20,6.69,ES,1691180886
524,humaita,-7.5061,-63.0208,32.14,42,100,1.62,BR,1691180886
525,mukalla,14.5425,49.1242,30.84,63,100,3.11,YE,1691180886
526,elverum,60.8819,11.5623,14.5,71,100,1.18,NO,1691180886
527,greymouth,-42.4667,171.2,5.45,90,100,2.67,NZ,1691180760
528,malango,-2.9627,119.9001,20.42,97,92,0.64,ID,1691180887
529,choibalsan,48.0667,114.5,12.99,82,100,0.58,MN,1691180887
530,pitimbu,-7.4706,-34.8086,26.33,70,12,5.08,BR,1691180887
531,yekaterinoslavka,50.3734,129.1139,13.04,78,100,1.09,RU,1691180888
532,itupiranga,-5.1347,-49.3267,36.18,30,20,0.49,BR,1691180888
533,puerto lempira,15.2667,-83.7667,31.08,66,40,3.09,HN,1691180888
534,tiznit,29.5833,-9.5,20.25,67,12,2.54,MA,1691180888
535,port shepstone,-30.7414,30.455,18.4,53,100,3.02,ZA,1691180890
536,quintana de la serena,38.7459,-5.6723,26.02,15,0,2.7,ES,1691180890
537,sretensk,52.2453,117.7093,11.31,63,99,0.92,RU,1691180890
538,crieff,56.3727,-3.8389,14.85,75,100,1.02,GB,1691180890
539,sharm el-sheikh,27.8518,34.305,35.08,21,0,3.09,EG,1691180891
540,bengkulu,-3.8004,102.2655,24.44,92,22,2.92,ID,1691180615
541,mawlamyinegyunn,16.3833,95.2667,25.68,90,97,3.14,MM,1691180891
542,oltinko'l,40.8011,72.1634,29.11,19,24,2.21,UZ,1691180891
543,broken hill,-31.95,141.4333,8.33,85,99,7.28,AU,1691180891
544,carupano,10.6678,-63.2585,29.92,68,18,5.26,VE,1691180892
545,yaren,-0.5472,166.916,28.68,73,84,3.07,NR,1691180892
546,lo prado,-33.4443,-70.7255,29.5,28,0,5.66,CL,1691180892
547,tayu,-6.5397,111.0518,23.46,74,45,3.8,ID,1691180892
548,ceeldheer,3.8488,47.1806,24.92,84,62,8.77,SO,1691180893
549,kijang,35.2442,129.2139,25.85,83,3,1.67,KR,1691180893
550,paithan,19.4833,75.3833,24.49,78,87,6.1,IN,1691180893
551,placido de castro,-10.3353,-67.1856,37.97,19,13,0.84,BR,1691180893
552,igarka,67.4667,86.5833,14.06,70,29,1.44,RU,1691180662
553,kitui,-1.367,38.0106,17.66,62,100,3.65,KE,1691180894
554,mondim de basto,41.4135,-7.9548,24.66,35,9,2.2,PT,1691180894
555,whangarei,-35.7317,174.3239,12.41,79,86,3.53,NZ,1691180894
556,rovaniemi,66.5,25.7167,16.67,94,100,2.06,FI,1691180894
557,griffith,41.5284,-87.4237,31.81,57,0,7.72,US,1691180685
558,saint-francois,46.4154,3.9054,16.69,72,0,4.63,FR,1691180733
559,aswan,24.0934,32.907,37.61,15,0,2.57,EG,1691180895
